<?xml version="1.0" encoding="UTF-8" standalone="no" ?><gpx xmlns="http://www.topografix.com/GPX/1/1" xmlns:gpxx="http://www.garmin.com/xmlschemas/GpxExtensions/v3" xmlns:wptx1="http://www.garmin.com/xmlschemas/WaypointExtension/v1" xmlns:gpxtpx="http://www.garmin.com/xmlschemas/TrackPointExtension/v1" creator="Oregon 550t Taiwan" version="1.1" xmlns:xsi="http://www.w3.org/2001/XMLSchema-instance" xsi:schemaLocation="http://www.topografix.com/GPX/1/1 http://www.topografix.com/GPX/1/1/gpx.xsd http://www.garmin.com/xmlschemas/GpxExtensions/v3 http://www8.garmin.com/xmlschemas/GpxExtensionsv3.xsd http://www.garmin.com/xmlschemas/WaypointExtension/v1 http://www8.garmin.com/xmlschemas/WaypointExtensionv1.xsd http://www.garmin.com/xmlschemas/TrackPointExtension/v1 http://www.garmin.com/xmlschemas/TrackPointExtensionv1.xsd"><metadata><link href="http://www.garmin.com"><text>Garmin International</text></link><time>2017-03-08T01:17:58Z</time></metadata><wpt lat="23.859935" lon="121.355914"><ele>1123.640381</ele><time>2017-03-08T01:17:58Z</time><name>躲石洞</name><sym>Blood Trail</sym></wpt><wpt lat="23.860524" lon="121.355771"><ele>1078.308594</ele><time>2017-03-08T01:33:36Z</time><name>八米小瀑</name><sym>Shower</sym></wpt><wpt lat="23.861524" lon="121.356259"><ele>1014.142700</ele><time>2017-03-08T02:05:23Z</time><name>九芎鋸木</name><cmt>列人取水路跡</cmt><sym>Park</sym></wpt><wpt lat="23.861574" lon="121.356426"><ele>1012.311523</ele><time>2017-03-08T02:10:55Z</time><name>二顆大石</name><cmt>石下乾燥可紮營</cmt><sym>Blood Trail</sym></wpt><wpt lat="23.861666" lon="121.356700"><ele>1008.386108</ele><time>2017-03-08T02:22:58Z</time><name>石洞大獵寮</name><cmt>希望獵寮到此得救乾燥避風乾柴棉被</cmt><sym>Lodge</sym></wpt><wpt lat="23.859973" lon="121.357549"><ele>1147.683960</ele><time>2017-03-08T03:24:21Z</time><name>舊PET瓶</name><sym>City (Small)</sym></wpt><wpt lat="23.859554" lon="121.357472"><ele>1166.305298</ele><time>2017-03-08T03:33:58Z</time><name>避難石洞</name><sym>Blood Trail</sym></wpt><wpt lat="23.859135" lon="121.357449"><ele>1198.788818</ele><time>2017-03-08T03:42:48Z</time><name>石1</name><sym>Blood Trail</sym></wpt><wpt lat="23.862282" lon="121.356362"><ele>959.818970</ele><time>2017-03-08T06:29:46Z</time><name>小溪石洞</name><sym>Treed Quarry</sym></wpt></gpx>